stop_id,stop_name,stop_lat,stop_lon

1000, SW 40 St & SW 42 Av, Coral Gables Highschool entrance,25°44'05.7"N 80°15'45.3"W
1002, SW 42 Av - Coral Gables Highschool Entrance, 25°44'04.7"N 80°15'42.3"W
1003, Sw 42 Av - Coral Gables Highschool & San Lorenzo Ave, 25.734209, -80.261934
1004, SW 40 St & Segovia St,25°44'04.2"N 80°15'57.1"W
1005, SW 40 St & Monserrate St, 25.734368, -80.269375
1006, SW 40 St & Anderson Rd, 25.734537, -80.269797
1007, SW 40 St & Granada Bd, Beside Granada Presbyterian Church, 25.734256, -80.273305
1008, SW 40 St & Golf Course Driveway,25.734377, -80.275192
1009, 4001 Santa Maria St, Between Granada and Builtmore golf courses, 25.734075, -80.276901
1010, SW 4O St@Pinta CT, Between Granada and Builtmore golf courses, 25.733977, -80.280538
1011, SW 40 St@Mariola CT W, 25.734320, -80.280607
1012, SW 40 St@San Amaro Dr,25.734183, -80.282573
1013, 1501-1515 SW 40th St, 25.734130, -80.284665
SW 57 Av@SW 40 St, Bird Red intersection, 25.734718, -80.286406
SW 57 Av@Alcala Av, 2 blocks from Bird/Red, 25.736226, -80.286546
SW 57 Av@Murcia Av, Coral Gables Wayside Park, 25.737907, -80.286613
SW 57 Av@SW 35 St, Coral Gables Wayside Park, 25.737656, -80.286794
SW 57 Av@SW 34 St, Coral Gables Wayside Park, 25.739432, -80.286904
SW 57 Av@Trevino Av, 25.740000, -80.286735
SW 57 Av@SW 31 St, 25.742318, -80.287010
SW 57 Av@Catalonia Av - Schenley Park, 25.742987, -80.286897
SW 57 Av@Coral Way - Ferdinand Park, 25.748451, -80.287281
SW 57 Av@SW 24 St - Ferdinand Park, 25.749153, -80.287265
SW 57 Av@SW 22 St - Between Se7aS Bar and Duffy's Tavern, 25.750538, -80.287479
SW 57 Av@S Greenway Dr - Infront of Duffy's Tavern, 25.750900, -80.287334
SW 57 Av@SW 17 St - Flaglar Auto Repair, 25.754697, -80.287622
SW 16 St@SW 57 Av - The Builtmore School, 25.756224, -80.287771
SW 8 St@Country Club Prado, 25.763494, -80.286176
5630-5652 SW 8th St -J. FRITZ AND FRANCES GORDON PARK, 25.763245, -80.286686
SW 8 St@Genoa St - Cafateria Plaza Madrid, 25.763709, -80.281031
SW 8 St@Granada Blvd, 25.763866, -80.275848
801 Santiago St - Wishes Hotel, 25.764045, -80.272259
SW 37 Av@SW 8 St - MD bus #37 Norway Consulate General and Douglas Entrance Historical Ballroom, 25.764355, -80.255201
SW 37 Av@Santillane Av - MD bus #37, 25.761783, -80.255150
SW 37 Av@Sidonia Av - MD bus #37,25.759737, -80.255046
SW 37 Av@Menores Av - MD bus #37, 25.757943, -80.255002
SW 37 Av@Alhambra CR -Caballero Rivero Coral Gables and Joseph's Deli & Coffee Shop II, 25.755085, -80.254856
SW 37 Av@Minorca Av - Apple, IBM and Yahoo offices, 25.753063, -80.254813
SW 37 Av@Giralda Av - MD bus #37, 25.751291, -80.254758
SW 37 Av@Coral Way - MD bus #37, US Post Office, 25.749453, -80.254667
SW 37 Av@Sevilla Av - MD bus #37, Gables Terrace Condominiums, 25.746692, -80.254547
SW 37 Av@Malaga Av - Havana Vieja,25.745146, -80.254491
SW 37 Av@Coconut Grove Dr - Coral Gables Hospital, 25.742979, -80.254455
1400 Coral Way - MD bus #24, 25.748525, -80.283724
SW 24 St@N Greenway Dr - MD bus #24, 25.748617, -80.283440
SW 24 St@Madrid St - MD Bus #24, 25.748525, -80.282040
SW 24 St@Madrid St - MD Bus #24, 25.748703, -80.281600
SW 24 St@Columbus Bd, 25.748649, -80.279425
SW 24 St@Columbus Bd, 25.748763, -80.278686
SW 24 St@Cordova St, 25.748811, -80.277444
SW 24 St@Granada Bd - Ponce De Leon Plaza, 25.748769, -80.275326
SW 24 St@Granada Bd - Ponce De Leon Plaza, 25.748861, -80.274731
SW 24 St@Toledo St - Coral Gables Merrick House, 25.748782, -80.272951
SW 24 St@Toledo St, 25.748959, -80.272411
SW 24 St@S Greenway - Granada Golf Course 2nd hole, 25.749008, -80.270489


1001,1701 NW 110 Ave - City of Sweetwater Maintenance and transit Dept,25.789842,-80.374116
1002,1701 NW 112th Avenue - Sweetwater Code Enforcement and Building and Zoning,25.789856,-80.376591
1003,11401 NW 12th St - DOLPHIN MALL,25.790167,-80.382720
1004,Entry #8 Trio,25.788982,-80.381359
1005,Entry #7 Bloomindales' - The Outlet Store,25.788770,-80.379875
1006,Burlington Coat Factory,25.788495,-80.378306
1007,Entry #5 Dolphin Mall,25.788061,-80.377542
1008,Marshall / Home Goods,25.787526,-80.377005
1009,Entry #4 - Sacks Fifth Avenue Outlet,25.786340,-80.377756
1010,ROSS,25.786288,-80.379077
1011,Main Entrance Texas Brazil and Cheesecake Factory,25.786295,-80.381403
1012,Entry #2 - Old Navy,25.787467,-80.383355
1013,Bass Pro Shop,25.788658,-80.384232
1014,DOLPHIN MALL Miami-Dade Main Bus Stop,25.790182,-80.382716
1015,1801 NW 117th Avenue - IKEA,25.792441,-80.384875
1016,11698 NW 25th St - US Postal Service,25.796089,-80.384969
1017,11411 NW 25th St - Our Lady of Mercy Catholic Cemetary,25.796756,-80.380409
1018,10730 NW 25th St La Covacha,25.796825,-80.369556
1019,2390 NW 107th Avenue - Midas,25.795821,-80.369141
1020,1890 NW 107th Avenue - BP gas station/ MD bus stop,25.791140,-80.369053
1021,1500 NW 107th Avenue - County Federal Credit Union,25.788252,-80.368964
1022,1414 NW 107th Avenue - MD bus stop,25.786728,-80.368925
1023,1390 NW 107th Avenue - MD bus stop,25.785788,-80.368890
1024,500 NW 107th Avenue - MD bus stop,25.775014,-80.369670
1025,318 NW 107th Avenue - MD bus stop,25.773186,-80.369493
1026,200 NW 107th Avenue - MD bus stop,25.770899,-80.369308
1027,10701 NW W. Flagler - Mobil / Food Star,25.768930,-80.369127
1028,10910 W. Flagler - My Pueblo Restaurant,25.768546,-80.373628
1029,10983 SW 4th Street - MD bus stop,25.764667,-80.374820
1030,110th Avenue & SW 5th St - MD bus stop,25.764048,-80.374683
1031,500 SW 109th Avenue - City of Sweetwater,25.764052,-80.373102
1032,City Hall - POLICE Department and MD Clerk of Courts,25.764056,-80.372703
1033,512 SW 109th Avenue - City of Sweetwater Passport Office,25.763737,-80.372658
1034,7th & SW 110th Avenue - Stop sign,25.762511,-80.374408
1035,7th Tr & SW 110th Avenue - Stop sign,25.761653,-80.374474
1036,7th Tr & SW 113th and 114th Avenue,25.761595,-80.379491
1037,250 SW 114th Avenue Jorge Mas Canosa Youth Center / Ronselli Park,25.766016,-80.380840
1038,11495 W. Flagler - Social Security / Robles / Villa Hermosa,25.768366,-80.382832
1039,11699 W. Flagler - Salon Del Reino De Los Testigos De Jehova,25.768327,-80.383487
1040,117th Avenue & SW 1st St - Corner,25.768286,-80.384690
1041,11590 SW 2nd St - MD bus stop,25.766397,-80.383631
1042,11490 SW 2nd St - MD bus stop,25.766419,-80.382725
1043,455 NW 114th Avenue - (New Building),25.772568,-80.381368
1044,4th Tr & NW 110th Avenue,25.772740,-80.381375
1045,6th St & NW 114th Avenue,25.774430,-80.381527
1046,7th & NW 113th Avenue,25.775340,-80.379468
1047,7th & NW 112th Avenue,25.775375,-80.377732
1048,606 NW 112th Avenue - MD bus Stop,25.774855,-80.377632
1049,11235 NW 5th St - Vann Academy / MD bus stop,25.773343,-80.377481
1050,112th Avenue & NW 2nd Tr - MD bus stop,25.771329,-80.377317
1051,112th Avenue & NW 1st St - MD bus stop,25.769770,-80.377214
1052,11200 W. Flagler - Tower Plaza / MD bus stop,25.768012,-80.377045
1053,11200 SW 2nd St - MD bus stop,25.766271,-80.376896
1054,7th Tr & SW 113th and 114th Avenue,25.761596,-80.380066
1055,550 SW 115th Avenue - Sweetwater Creek,25.763505,-80.382726
1056,115th SW 2nd Street - Stop sign,25.766370,-80.382880
1057,11400 SW W. Flagler - Flagler Shopping Center / MD bus stop,25.768147,-80.381379
1058,11388 W. Flagler - MD bus stop,25.768138,-80.380259
1059,113th Avenue & W. Flagler - MD bus stop,25.768206,-80.378428
1060,11180 W. Flagler - MD bus stop,25.768275,-80.376449
1061,10900 W. Flagler - Finish Line Gas Station,25.768302,-80.373549
1062,10780 W. Flagler - Madrono Restaurant,25.768343,-80.370601
1063,10720 W. Flagler - Sedanos,25.768399,-80.369534
1064,50 SW 108th Avenue - MD bus stop,25.768110,-80.370911
1065,10690 W. Flagler - Chase Bank,25.768376,-80.368426
1066,10500 W. Flagler - McDonald,25.768495,-80.366162
1067,SW 103 CT & W. Flagler - MD bus stop,25.768540,-80.363497
1068,10198 W. Flagler - Sunoco Gas Station / MD Bus stop,25.768640,-80.360436
1069,10044 W. Flagler - Navarro,25.768697,-80.359272
1070,99 CT & W. Flagler - MD bus stop,25.768739,-80.358205
1071,9695 W. Flagler - Winn Dixie,25.768852,-80.353415
1072,9825 W. Flagler - Ruben Dario Park,25.769013,-80.355804
1073,99 CT & W. Flagler - MD bus stop,25.768951,-80.358339
1074,102nd Avenue & SW 1st St,25.767746,-80.360919
1075,102nd Avenue & SW 4th St - Stop sign,25.765104,-80.360700
1076,10600 SW 4th St - Mildred & Claude Pepper Senior Center,25.764925,-80.366725
1077,300 SW 107th Ave - Continental National Bank of Miami,25.764952,-80.368275
1078,10750 SW 4th St - Sweetwater Towers,25.764881,-80.370111
1079,10899 SW 4th St - MD bus stop,25.764845,-80.372297
1080,740 SW 107th Avenue,25.762037,-80.368366
1081,1200 SW 107th Avenue - FIU,25.758136,-80.368424
1082,1525 SW 107th Avenue - Publix Supermarket / MD bus stop,25.755364,-80.368422
1083,1225 SW 107th Avenue - Palmer House / MD bus stop,25.757289,-80.368082
1084,595 SW 107th Avenue - MD bus stop,25.763288,-80.368473
1085,10555 W. Flagler (West Side) - FIU Engineering Center,25.769989,-80.368989
1086,561 NW 107th Ave -West Lake Village / MD bus stop,25.773202,-80.369249
1087,690 NW 107th Ave - Tropical Super Market,25.775358,-80.369436
1088,1455 NW 107 Ave - Macys & Old Navy - INTERNATIONAL MALL,25.784529,-80.368509
1089,10750 NW 14th Street - MD bus stop,25.786259,-80.369101
